{
"type": "FeatureCollection",
"name": "fasilitas_pendidikan",
"crs": { "type": "name", "properties": { "name": "urn:ogc:def:crs:OGC:1.3:CRS84" } },
"features": [
{ "type": "Feature", "properties": { "osm_id": 9233073333, "osm_type": "nodes", "capacity": null, "name": "SDN 2 Karangmulyo", "amenity": "school", "isced_level": null }, "geometry": { "type": "Point", "coordinates": [ 114.1217059, -8.4631934 ] } },
{ "type": "Feature", "properties": { "osm_id": 8261494533, "osm_type": "nodes", "capacity": null, "name": "SD Muhammadiyah 11", "amenity": "school", "isced_level": null }, "geometry": { "type": "Point", "coordinates": [ 114.2188265, -8.4676864 ] } },
{ "type": "Feature", "properties": { "osm_id": 8261494531, "osm_type": "nodes", "capacity": null, "name": "SMA PGRI Purwoharjo", "amenity": "school", "isced_level": null }, "geometry": { "type": "Point", "coordinates": [ 114.2239587, -8.4701362 ] } },
{ "type": "Feature", "properties": { "osm_id": 8261494529, "osm_type": "nodes", "capacity": null, "name": "SD NU Kradenan", "amenity": "school", "isced_level": null }, "geometry": { "type": "Point", "coordinates": [ 114.2267655, -8.4710053 ] } },
{ "type": "Feature", "properties": { "osm_id": 12011400540, "osm_type": "nodes", "capacity": null, "name": "SMA Negeri 1 Tegaldlimo", "amenity": "school", "isced_level": null }, "geometry": { "type": "Point", "coordinates": [ 114.2816503, -8.495797 ] } },
{ "type": "Feature", "properties": { "osm_id": 10287381355, "osm_type": "nodes", "capacity": null, "name": "TK Khadijah 45", "amenity": "kindergarten", "isced_level": null }, "geometry": { "type": "Point", "coordinates": [ 114.1174647, -8.3382307 ] } },
{ "type": "Feature", "properties": { "osm_id": 8251375819, "osm_type": "nodes", "capacity": null, "name": "SD Negeri Setail 4", "amenity": "school", "isced_level": null }, "geometry": { "type": "Point", "coordinates": [ 114.1265785, -8.3535583 ] } },
{ "type": "Feature", "properties": { "osm_id": 1719383498, "osm_type": "nodes", "capacity": null, "name": "SMK Al-Azhar Sempu", "amenity": "school", "isced_level": null }, "geometry": { "type": "Point", "coordinates": [ 114.1378687, -8.3040963 ] } },
{ "type": "Feature", "properties": { "osm_id": 1719383480, "osm_type": "nodes", "capacity": null, "name": "SMP Muh 7 Sempu", "amenity": "school", "isced_level": null }, "geometry": { "type": "Point", "coordinates": [ 114.1413475, -8.3049721 ] } },
{ "type": "Feature", "properties": { "osm_id": 1719383488, "osm_type": "nodes", "capacity": null, "name": "MI Islamiyah Sempu", "amenity": "school", "isced_level": null }, "geometry": { "type": "Point", "coordinates": [ 114.141723, -8.3053224 ] } },
{ "type": "Feature", "properties": { "osm_id": 1719383493, "osm_type": "nodes", "capacity": null, "name": "MTs Islamiyah", "amenity": "school", "isced_level": null }, "geometry": { "type": "Point", "coordinates": [ 114.1415004, -8.3059913 ] } },
{ "type": "Feature", "properties": { "osm_id": 8251828535, "osm_type": "nodes", "capacity": null, "name": "SD Negeri 2 Kaligondo", "amenity": "school", "isced_level": null }, "geometry": { "type": "Point", "coordinates": [ 114.1110793, -8.3008699 ] } },
{ "type": "Feature", "properties": { "osm_id": 8251828388, "osm_type": "nodes", "capacity": null, "name": "TPQ Babussalam", "amenity": null, "isced_level": null }, "geometry": { "type": "Point", "coordinates": [ 114.1203492, -8.3277189 ] } },
{ "type": "Feature", "properties": { "osm_id": 4081160066, "osm_type": "nodes", "capacity": null, "name": "SD N 5 Pejarakan", "amenity": "school", "isced_level": null }, "geometry": { "type": "Point", "coordinates": [ 114.5771657, -8.1557183 ] } },
{ "type": "Feature", "properties": { "osm_id": 8251828506, "osm_type": "nodes", "capacity": null, "name": "MAN 2 Banyuwangi", "amenity": "school", "isced_level": null }, "geometry": { "type": "Point", "coordinates": [ 114.1469134, -8.3498045 ] } },
{ "type": "Feature", "properties": { "osm_id": 11805272751, "osm_type": "nodes", "capacity": null, "name": "Ponpes Miftahul Ulum", "amenity": "school", "isced_level": null }, "geometry": { "type": "Point", "coordinates": [ 114.1063242, -8.297801 ] } },
{ "type": "Feature", "properties": { "osm_id": 11799305128, "osm_type": "nodes", "capacity": null, "name": "TK Dewi Sartika", "amenity": "school", "isced_level": null }, "geometry": { "type": "Point", "coordinates": [ 114.1020929, -8.2987838 ] } },
{ "type": "Feature", "properties": { "osm_id": 11799305129, "osm_type": "nodes", "capacity": null, "name": "MI Tarbiyatul Atfal", "amenity": "school", "isced_level": null }, "geometry": { "type": "Point", "coordinates": [ 114.102212, -8.2990703 ] } },
{ "type": "Feature", "properties": { "osm_id": 11799305130, "osm_type": "nodes", "capacity": null, "name": "Ponpes Nurul Huda", "amenity": "school", "isced_level": null }, "geometry": { "type": "Point", "coordinates": [ 114.1023825, -8.2991303 ] } },
{ "type": "Feature", "properties": { "osm_id": 11799305134, "osm_type": "nodes", "capacity": null, "name": "TK Darul Hikmah", "amenity": "school", "isced_level": null }, "geometry": { "type": "Point", "coordinates": [ 114.0998526, -8.3037979 ] } },
{ "type": "Feature", "properties": { "osm_id": 11799305135, "osm_type": "nodes", "capacity": null, "name": "Madrasah Aliyah", "amenity": "school", "isced_level": null }, "geometry": { "type": "Point", "coordinates": [ 114.1002007, -8.3041241 ] } },
{ "type": "Feature", "properties": { "osm_id": 8251968273, "osm_type": "nodes", "capacity": null, "name": "TK Khadijah 165", "amenity": "school", "isced_level": null }, "geometry": { "type": "Point", "coordinates": [ 114.119442, -8.327779 ] } },
{ "type": "Feature", "properties": { "osm_id": 8239114927, "osm_type": "nodes", "capacity": null, "name": "SD Negeri 5 Kaligondo", "amenity": "school", "isced_level": null }, "geometry": { "type": "Point", "coordinates": [ 114.1142482, -8.337889 ] } },
{ "type": "Feature", "properties": { "osm_id": 13414750339, "osm_type": "nodes", "capacity": null, "name": "SD Katolik Budi Luhur", "amenity": "school", "isced_level": null }, "geometry": { "type": "Point", "coordinates": [ 114.0519867, -8.3123766 ] } },
{ "type": "Feature", "properties": { "osm_id": 9832056949, "osm_type": "nodes", "capacity": null, "name": "SMA Negeri 1 Glenmore", "amenity": "school", "isced_level": null }, "geometry": { "type": "Point", "coordinates": [ 114.0309467, -8.2950575 ] } },
{ "type": "Feature", "properties": { "osm_id": 12082899746, "osm_type": "nodes", "capacity": null, "name": "SDN 1 BULUSARI", "amenity": null, "isced_level": null }, "geometry": { "type": "Point", "coordinates": [ 114.2873452, -8.1451261 ] } },
{ "type": "Feature", "properties": { "osm_id": 12084488067, "osm_type": "nodes", "capacity": null, "name": "SDN 1 PESUCEN", "amenity": null, "isced_level": null }, "geometry": { "type": "Point", "coordinates": [ 114.3123151, -8.1651939 ] } },
{ "type": "Feature", "properties": { "osm_id": 12073029958, "osm_type": "nodes", "capacity": null, "name": "SDN 3 KALIPURO", "amenity": null, "isced_level": null }, "geometry": { "type": "Point", "coordinates": [ 114.3486996, -8.1414577 ] } },
{ "type": "Feature", "properties": { "osm_id": 12082886460, "osm_type": "nodes", "capacity": null, "name": "SDN 2 TELEMUNG", "amenity": null, "isced_level": null }, "geometry": { "type": "Point", "coordinates": [ 114.3198041, -8.1501514 ] } },
{ "type": "Feature", "properties": { "osm_id": 12082926613, "osm_type": "nodes", "capacity": null, "name": "SMP 3 KALIPURO", "amenity": null, "isced_level": null }, "geometry": { "type": "Point", "coordinates": [ 114.3081338, -8.1431504 ] } },
{ "type": "Feature", "properties": { "osm_id": 11866891293, "osm_type": "nodes", "capacity": null, "name": "SMK Darul Manja", "amenity": "school", "isced_level": null }, "geometry": { "type": "Point", "coordinates": [ 114.1024744, -8.2841803 ] } },
{ "type": "Feature", "properties": { "osm_id": 11866891294, "osm_type": "nodes", "capacity": null, "name": "TK Kartini", "amenity": "school", "isced_level": null }, "geometry": { "type": "Point", "coordinates": [ 114.1027989, -8.2838565 ] } },
{ "type": "Feature", "properties": { "osm_id": 11866891295, "osm_type": "nodes", "capacity": null, "name": "SD Islam", "amenity": "school", "isced_level": null }, "geometry": { "type": "Point", "coordinates": [ 114.1027378, -8.2840241 ] } },
{ "type": "Feature", "properties": { "osm_id": 11800500173, "osm_type": "nodes", "capacity": null, "name": "SDN 2 Sumbergondo", "amenity": "school", "isced_level": null }, "geometry": { "type": "Point", "coordinates": [ 114.0964328, -8.280776 ] } },
{ "type": "Feature", "properties": { "osm_id": 11799792504, "osm_type": "nodes", "capacity": null, "name": "TPQ", "amenity": "school", "isced_level": null }, "geometry": { "type": "Point", "coordinates": [ 114.0999628, -8.2868758 ] } },
{ "type": "Feature", "properties": { "osm_id": 9831932236, "osm_type": "nodes", "capacity": null, "name": "TK Pertiwi", "amenity": "school", "isced_level": null }, "geometry": { "type": "Point", "coordinates": [ 114.1459641, -8.3626949 ] } },
{ "type": "Feature", "properties": { "osm_id": 8251828491, "osm_type": "nodes", "capacity": null, "name": "TK Bhayangkari", "amenity": "kindergarten", "isced_level": null }, "geometry": { "type": "Point", "coordinates": [ 114.1463932, -8.3610367 ] } },
{ "type": "Feature", "properties": { "osm_id": 9233537560, "osm_type": "nodes", "capacity": null, "name": "SDN Wonosari 1", "amenity": null, "isced_level": null }, "geometry": { "type": "Point", "coordinates": [ 113.8939362, -7.8857204 ] } },
{ "type": "Feature", "properties": { "osm_id": 11402644661, "osm_type": "nodes", "capacity": null, "name": "SD Negeri 2 Singotrunan", "amenity": "school", "isced_level": null }, "geometry": { "type": "Point", "coordinates": [ 114.3723745, -8.1966445 ] } },
{ "type": "Feature", "properties": { "osm_id": 4359084077, "osm_type": "nodes", "capacity": null, "name": "TK Dharma Wanita Kartini Kemiren Sayu Wiwit", "amenity": "kindergarten", "isced_level": null }, "geometry": { "type": "Point", "coordinates": [ 114.3226191, -8.2062111 ] } },
{ "type": "Feature", "properties": { "osm_id": 8439766676, "osm_type": "nodes", "capacity": null, "name": "SMP Al-Irsyad Al-Islamiyyah Banyuwangi", "amenity": "school", "isced_level": null }, "geometry": { "type": "Point", "coordinates": [ 114.3735503, -8.2012912 ] } },
{ "type": "Feature", "properties": { "osm_id": 13343571054, "osm_type": "nodes", "capacity": null, "name": "TK Negeri Model", "amenity": "kindergarten", "isced_level": null }, "geometry": { "type": "Point", "coordinates": [ 114.3694299, -8.23683 ] } },
{ "type": "Feature", "properties": { "osm_id": 4357624408, "osm_type": "nodes", "capacity": null, "name": "SD Negeri 02 Kemiren", "amenity": "school", "isced_level": null }, "geometry": { "type": "Point", "coordinates": [ 114.3262904, -8.2043996 ] } },
{ "type": "Feature", "properties": { "osm_id": 4081160065, "osm_type": "nodes", "capacity": null, "name": "SD N 1 Pejarakan", "amenity": "school", "isced_level": null }, "geometry": { "type": "Point", "coordinates": [ 114.5806074, -8.1412935 ] } },
{ "type": "Feature", "properties": { "osm_id": 4081160067, "osm_type": "nodes", "capacity": null, "name": "SD N 2 Pejarakan", "amenity": "school", "isced_level": null }, "geometry": { "type": "Point", "coordinates": [ 114.589931, -8.1452592 ] } },
{ "type": "Feature", "properties": { "osm_id": 4058091582, "osm_type": "nodes", "capacity": null, "name": "SD N 04 Sumber Kima", "amenity": "school", "isced_level": null }, "geometry": { "type": "Point", "coordinates": [ 114.6000962, -8.1433513 ] } },
{ "type": "Feature", "properties": { "osm_id": 4081168407, "osm_type": "nodes", "capacity": null, "name": "SMK Nusa Dua Gerokgak", "amenity": "school", "isced_level": null }, "geometry": { "type": "Point", "coordinates": [ 114.6040026, -8.1432007 ] } },
{ "type": "Feature", "properties": { "osm_id": 4081160064, "osm_type": "nodes", "capacity": null, "name": "SD N 6 Pejarakan", "amenity": "school", "isced_level": null }, "geometry": { "type": "Point", "coordinates": [ 114.5828047, -8.1347867 ] } },
{ "type": "Feature", "properties": { "osm_id": 12218900247, "osm_type": "nodes", "capacity": null, "name": "Les Bahasa Inggris", "amenity": "school", "isced_level": null }, "geometry": { "type": "Point", "coordinates": [ 114.1956785, -8.4359625 ] } },
{ "type": "Feature", "properties": { "osm_id": 12218900477, "osm_type": "nodes", "capacity": null, "name": "SDN 4 Cluring", "amenity": "school", "isced_level": null }, "geometry": { "type": "Point", "coordinates": [ 114.198075, -8.4354108 ] } },
{ "type": "Feature", "properties": { "osm_id": 8251828475, "osm_type": "nodes", "capacity": null, "name": "Institut Teknologi dan Bisnis Muhammadiyah", "amenity": "university", "isced_level": null }, "geometry": { "type": "Point", "coordinates": [ 114.1465931, -8.3686926 ] } },
{ "type": "Feature", "properties": { "osm_id": 8251828490, "osm_type": "nodes", "capacity": null, "name": "SD Negeri 2 Genteng", "amenity": "school", "isced_level": null }, "geometry": { "type": "Point", "coordinates": [ 114.1463889, -8.3614784 ] } },
{ "type": "Feature", "properties": { "osm_id": 8261494535, "osm_type": "nodes", "capacity": null, "name": "SD Negeri 5 Sembulung", "amenity": "school", "isced_level": null }, "geometry": { "type": "Point", "coordinates": [ 114.2169471, -8.4606466 ] } },
{ "type": "Feature", "properties": { "osm_id": 12218890353, "osm_type": "nodes", "capacity": null, "name": "SD Negeri 3 Sarimulyo", "amenity": "school", "isced_level": null }, "geometry": { "type": "Point", "coordinates": [ 114.2544361, -8.4107384 ] } },
{ "type": "Feature", "properties": { "osm_id": 12218900248, "osm_type": "nodes", "capacity": null, "name": "SDN 1 Blambangan", "amenity": "school", "isced_level": null }, "geometry": { "type": "Point", "coordinates": [ 114.2903137, -8.4183121 ] } },
{ "type": "Feature", "properties": { "osm_id": 12216992637, "osm_type": "nodes", "capacity": null, "name": "Universitas Bakti Indonesia UBI", "amenity": "university", "isced_level": null }, "geometry": { "type": "Point", "coordinates": [ 114.2498054, -8.4137508 ] } },
{ "type": "Feature", "properties": { "osm_id": 11973917476, "osm_type": "nodes", "capacity": null, "name": "MI Al Ma'arif Rejoagung", "amenity": "school", "isced_level": null }, "geometry": { "type": "Point", "coordinates": [ 114.3031466, -8.3908085 ] } },
{ "type": "Feature", "properties": { "osm_id": 13266400857, "osm_type": "nodes", "capacity": null, "name": "MI Assunniyyah", "amenity": "school", "isced_level": null }, "geometry": { "type": "Point", "coordinates": [ 114.2990141, -8.4006405 ] } },
{ "type": "Feature", "properties": { "osm_id": 1411210583, "osm_type": "nodes", "capacity": null, "name": "SDN 1 Melaya", "amenity": "school", "isced_level": null }, "geometry": { "type": "Point", "coordinates": [ 114.4956041, -8.274031 ] } },
{ "type": "Feature", "properties": { "osm_id": 11796284657, "osm_type": "nodes", "capacity": null, "name": "SDN 3 Sumbergondo", "amenity": "school", "isced_level": null }, "geometry": { "type": "Point", "coordinates": [ 114.1037237, -8.2935762 ] } },
{ "type": "Feature", "properties": { "osm_id": 12213764647, "osm_type": "nodes", "capacity": null, "name": "SMK 17 Agustus 1945 Muncar", "amenity": "school", "isced_level": null }, "geometry": { "type": "Point", "coordinates": [ 114.3069574, -8.429441 ] } },
{ "type": "Feature", "properties": { "osm_id": 12011400536, "osm_type": "nodes", "capacity": null, "name": "SMP Negeri 1 Purwoharjo", "amenity": "school", "isced_level": null }, "geometry": { "type": "Point", "coordinates": [ 114.2526617, -8.5089114 ] } },
{ "type": "Feature", "properties": { "osm_id": 11965947552, "osm_type": "nodes", "capacity": null, "name": "MI NU 1 GRAJAGAN", "amenity": "school", "isced_level": null }, "geometry": { "type": "Point", "coordinates": [ 114.2443331, -8.5485445 ] } },
{ "type": "Feature", "properties": { "osm_id": 11965947549, "osm_type": "nodes", "capacity": null, "name": "SDK Sang Timur Sumberjati", "amenity": "school", "isced_level": null }, "geometry": { "type": "Point", "coordinates": [ 114.2366483, -8.5485817 ] } },
{ "type": "Feature", "properties": { "osm_id": 13167333479, "osm_type": "nodes", "capacity": null, "name": "SMP Prajamukti Kosgoro", "amenity": "school", "isced_level": null }, "geometry": { "type": "Point", "coordinates": [ 114.2476869, -8.5486497 ] } },
{ "type": "Feature", "properties": { "osm_id": 6357517891, "osm_type": "nodes", "capacity": null, "name": "SD Pejaten 1", "amenity": "school", "isced_level": null }, "geometry": { "type": "Point", "coordinates": [ 113.8449782, -7.9008553 ] } },
{ "type": "Feature", "properties": { "osm_id": 6357517890, "osm_type": "nodes", "capacity": null, "name": "SD Pejaten 2", "amenity": "school", "isced_level": null }, "geometry": { "type": "Point", "coordinates": [ 113.8529298, -7.9018623 ] } },
{ "type": "Feature", "properties": { "osm_id": 13408262323, "osm_type": "nodes", "capacity": null, "name": "SMP Negeri 4 Sumberjambe", "amenity": "school", "isced_level": null }, "geometry": { "type": "Point", "coordinates": [ 113.9115036, -8.108568 ] } },
{ "type": "Feature", "properties": { "osm_id": 13408262324, "osm_type": "nodes", "capacity": null, "name": "SD Negeri 2 Gunungmalang", "amenity": "school", "isced_level": null }, "geometry": { "type": "Point", "coordinates": [ 113.9120049, -8.1087937 ] } },
{ "type": "Feature", "properties": { "osm_id": 13648907360, "osm_type": "nodes", "capacity": null, "name": "MI Al Ikhlas", "amenity": "school", "isced_level": null }, "geometry": { "type": "Point", "coordinates": [ 114.2943417, -8.3912288 ] } },
{ "type": "Feature", "properties": { "osm_id": 10898479904, "osm_type": "nodes", "capacity": null, "name": "SMK PGRI 3 Kandangan", "amenity": "school", "isced_level": null }, "geometry": { "type": "Point", "coordinates": [ 113.9904683, -8.5281133 ] } },
{ "type": "Feature", "properties": { "osm_id": 13797376254, "osm_type": "nodes", "capacity": null, "name": "SDN 4 Sepanjang", "amenity": "school", "isced_level": null }, "geometry": { "type": "Point", "coordinates": [ 114.0594893, -8.3001882 ] } },
{ "type": "Feature", "properties": { "osm_id": 4081160068, "osm_type": "nodes", "capacity": null, "name": "SD N 3 Pejarakan", "amenity": "school", "isced_level": null }, "geometry": { "type": "Point", "coordinates": [ 114.5898378, -8.1495288 ] } },
{ "type": "Feature", "properties": { "osm_id": 4424843891, "osm_type": "nodes", "capacity": null, "name": "Kantor TKJ SMKN 1 Glagah", "amenity": "school", "isced_level": null }, "geometry": { "type": "Point", "coordinates": [ 114.3441856, -8.2159469 ] } },
{ "type": "Feature", "properties": { "osm_id": 10284722633, "osm_type": "nodes", "capacity": null, "name": "IAI Ibrahimy", "amenity": "university", "isced_level": null }, "geometry": { "type": "Point", "coordinates": [ 114.1618156, -8.3558666 ] } },
{ "type": "Feature", "properties": { "osm_id": 9831932235, "osm_type": "nodes", "capacity": null, "name": "SD Negeri 3 Genteng", "amenity": "school", "isced_level": null }, "geometry": { "type": "Point", "coordinates": [ 114.1480512, -8.3603409 ] } },
{ "type": "Feature", "properties": { "osm_id": 8251968261, "osm_type": "nodes", "capacity": null, "name": "SD Darusyafaah", "amenity": "school", "isced_level": null }, "geometry": { "type": "Point", "coordinates": [ 114.1197164, -8.3300388 ] } },
{ "type": "Feature", "properties": { "osm_id": 8251828496, "osm_type": "nodes", "capacity": null, "name": "SD Negeri 1 Genteng", "amenity": "school", "isced_level": null }, "geometry": { "type": "Point", "coordinates": [ 114.1460691, -8.3617474 ] } },
{ "type": "Feature", "properties": { "osm_id": 8251828532, "osm_type": "nodes", "capacity": null, "name": "SD Negeri 8 Kaligondo", "amenity": "school", "isced_level": null }, "geometry": { "type": "Point", "coordinates": [ 114.1186436, -8.3008219 ] } },
{ "type": "Feature", "properties": { "osm_id": 8251343710, "osm_type": "nodes", "capacity": null, "name": "SMK 17 Agustus Genteng", "amenity": "school", "isced_level": null }, "geometry": { "type": "Point", "coordinates": [ 114.1342644, -8.3622182 ] } },
{ "type": "Feature", "properties": { "osm_id": 8251828493, "osm_type": "nodes", "capacity": null, "name": "SMP Negeri 1 Genteng", "amenity": "school", "isced_level": null }, "geometry": { "type": "Point", "coordinates": [ 114.1472976, -8.3608531 ] } },
{ "type": "Feature", "properties": { "osm_id": 8251828497, "osm_type": "nodes", "capacity": null, "name": "UPTD Pendidikan Genteng", "amenity": null, "isced_level": null }, "geometry": { "type": "Point", "coordinates": [ 114.1457955, -8.3616546 ] } },
{ "type": "Feature", "properties": { "osm_id": 8251828533, "osm_type": "nodes", "capacity": null, "name": "SMPN 2 Genteng", "amenity": "school", "isced_level": null }, "geometry": { "type": "Point", "coordinates": [ 114.115404, -8.3036336 ] } },
{ "type": "Feature", "properties": { "osm_id": 8251343701, "osm_type": "nodes", "capacity": null, "name": "MTs Negeri 8 Banyuwangi", "amenity": "school", "isced_level": null }, "geometry": { "type": "Point", "coordinates": [ 114.1413258, -8.3647732 ] } },
{ "type": "Feature", "properties": { "osm_id": 8251343711, "osm_type": "nodes", "capacity": null, "name": "SMA Muhammadiyah 2 Genteng", "amenity": "school", "isced_level": null }, "geometry": { "type": "Point", "coordinates": [ 114.1335258, -8.3611964 ] } },
{ "type": "Feature", "properties": { "osm_id": 8251343712, "osm_type": "nodes", "capacity": null, "name": "SMP Hadi Wijaya", "amenity": "school", "isced_level": null }, "geometry": { "type": "Point", "coordinates": [ 114.1336795, -8.362162 ] } },
{ "type": "Feature", "properties": { "osm_id": 8251343714, "osm_type": "nodes", "capacity": null, "name": "SD Negeri 1 Setail", "amenity": "school", "isced_level": null }, "geometry": { "type": "Point", "coordinates": [ 114.1353005, -8.3631606 ] } },
{ "type": "Feature", "properties": { "osm_id": 5046195423, "osm_type": "nodes", "capacity": null, "name": "Super friendly local school", "amenity": "school", "isced_level": null }, "geometry": { "type": "Point", "coordinates": [ 114.1091216, -8.5523125 ] } },
{ "type": "Feature", "properties": { "osm_id": 4424842893, "osm_type": "nodes", "capacity": null, "name": "SMKN 1 Glagah", "amenity": "school", "isced_level": null }, "geometry": { "type": "Point", "coordinates": [ 114.343944, -8.2155369 ] } }
]
}
